{"type":"FeatureCollection","features":[{"geometry": {"type": "Point", "coordinates": [-83.6754263577402, 42.31310604420861]}, "type": "Feature", "id": 1, "properties": {"City": "Ann Arbor", "Match_type": "A", "Name": "IHA Urgent Care - Domino's Farms", "Zip": 48105.0, "State": "MI", "Score": 100.0, "OBJECTID": 1, "Loc_name": "USA.StreetName", "Street": "4200 Whitehall Dr."}},{"geometry": {"type": "Point", "coordinates": [-83.6258377626026, 41.75245861187551]}, "type": "Feature", "id": 2, "properties": {"City": "Lambertville", "Match_type": "A", "Name": "Aspen Urgent Care", "Zip": 48144.0, "State": "MI", "Score": 100.0, "OBJECTID": 2, "Loc_name": "USA.PointAddress", "Street": "7581 Secor Rd."}},{"geometry": {"type": "Point", "coordinates": [-83.68994611362223, 41.696760765596935]}, "type": "Feature", "id": 3, "properties": {"City": "Toledo", "Match_type": "A", "Name": "Sylvania Urgent Care", "Zip": 43623.0, "State": "OH", "Score": 90.92, "OBJECTID": 3, "Loc_name": "USA.PointAddress", "Street": "4405 N. Holland-Sylvania"}},{"geometry": {"type": "Point", "coordinates": [-83.60722482606485, 41.708912533686544]}, "type": "Feature", "id": 4, "properties": {"City": "Toledo", "Match_type": "A", "Name": "West Toledo Urgent Care", "Zip": 43613.0, "State": "OH", "Score": 90.92, "OBJECTID": 4, "Loc_name": "USA.StreetAddress", "Street": "2627 Tremainsville"}},{"geometry": {"type": "Point", "coordinates": [-83.62339722919876, 41.69702924740187]}, "type": "Feature", "id": 5, "properties": {"City": "Toledo", "Match_type": "A", "Name": "Promedica Urgent Care", "Zip": 43623.0, "State": "OH", "Score": 100.0, "OBJECTID": 5, "Loc_name": "USA.PointAddress", "Street": "4235 Secor Rd"}},{"geometry": {"type": "Point", "coordinates": [-83.52066103308016, 41.72493446585298]}, "type": "Feature", "id": 6, "properties": {"City": "Toledo", "Match_type": "A", "Name": "North Toledo Urgent Care", "Zip": 43612.0, "State": "OH", "Score": 100.0, "OBJECTID": 6, "Loc_name": "USA.StreetAddress", "Street": "5911 Benore Road"}},{"geometry": {"type": "Point", "coordinates": [-83.03564362605249, 42.719641333081086]}, "type": "Feature", "id": 7, "properties": {"City": "Washington Twp", "Match_type": "A", "Name": "Washington Urgent Care", "Zip": 48094.0, "State": "MI", "Score": 90.92, "OBJECTID": 7, "Loc_name": "USA.PointAddress", "Street": "57850 Van Dyke"}},{"geometry": {"type": "Point", "coordinates": [-83.20282049786766, 42.25750948767279]}, "type": "Feature", "id": 8, "properties": {"City": "Allen Park", "Match_type": "A", "Name": "DMC Care - Park Urgent Care", "Zip": 48101.0, "State": "MI", "Score": 89.04, "OBJECTID": 8, "Loc_name": "PARCEL_2010", "Street": "15101 Southfield Rd."}},{"geometry": {"type": "Point", "coordinates": [-83.203129505822, 42.295879283102465]}, "type": "Feature", "id": 9, "properties": {"City": "Allen Park", "Match_type": "A", "Name": "Concentra Urgent Care", "Zip": 48101.0, "State": "MI", "Score": 89.04, "OBJECTID": 9, "Loc_name": "PARCEL_2010", "Street": "17500 Federal Drive, Suite 750"}},{"geometry": {"type": "Point", "coordinates": [-83.73687089167828, 42.26082933680448]}, "type": "Feature", "id": 10, "properties": {"City": "Ann Arbor", "Match_type": "A", "Name": "Ann Arbor Urgent Care", "Zip": 48104.0, "State": "MI", "Score": 89.04, "OBJECTID": 10, "Loc_name": "PARCEL_2010", "Street": "1000 E. Stadium St"}},{"geometry": {"type": "Point", "coordinates": [-83.7702438056071, 42.266340134089944]}, "type": "Feature", "id": 11, "properties": {"City": "Ann Arbor", "Match_type": "A", "Name": "Advance Urgent Care & Walk-In Clinic", "Zip": 48103.0, "State": "MI", "Score": 100.0, "OBJECTID": 11, "Loc_name": "PARCEL_2010", "Street": "1785 W. Stadium Blvd."}},{"geometry": {"type": "Point", "coordinates": [-83.69492779208389, 42.30838419427522]}, "type": "Feature", "id": 12, "properties": {"City": "Ann Arbor", "Match_type": "A", "Name": "IHA Urgent Care", "Zip": 48105.0, "State": "MI", "Score": 92.79, "OBJECTID": 12, "Loc_name": "MGFv14", "Street": "2090 Commonwealth Blvd."}},{"geometry": {"type": "Point", "coordinates": [-83.78110212466328, 42.286292517285915]}, "type": "Feature", "id": 13, "properties": {"City": "Ann Arbor", "Match_type": "A", "Name": "St. Joseph Mercy Maple Health & Urgent Care", "Zip": 48103.0, "State": "MI", "Score": 100.0, "OBJECTID": 13, "Loc_name": "PARCEL_2010", "Street": "501 N. Maple Rd."}},{"geometry": {"type": "Point", "coordinates": [-83.22197711595112, 42.6760888445246]}, "type": "Feature", "id": 14, "properties": {"City": "Auburn Hills", "Match_type": "A", "Name": "Oakland Urgent Care", "Zip": 48326.0, "State": "MI", "Score": 100.0, "OBJECTID": 14, "Loc_name": "PARCEL_2010", "Street": "2251 N. Squirrel Rd."}},{"geometry": {"type": "Point", "coordinates": [-83.73910662067397, 42.24195207872549]}, "type": "Feature", "id": 15, "properties": {"City": "Ann Arbor", "Match_type": "A", "Name": "Concentra Urgent Care", "Zip": 48108.0, "State": "MI", "Score": 92.79, "OBJECTID": 15, "Loc_name": "MGFv14", "Street": "3131 S. State Street"}},{"geometry": {"type": "Point", "coordinates": [-83.48697932433629, 42.21605315422971]}, "type": "Feature", "id": 16, "properties": {"City": "Belleville", "Match_type": "A", "Name": "DMC Care - Van Buren Urgent Care", "Zip": 48111.0, "State": "MI", "Score": 100.0, "OBJECTID": 16, "Loc_name": "PARCEL_2010", "Street": "11650 Belleville Road"}},{"geometry": {"type": "Point", "coordinates": [-83.69446651631665, 42.25654592795229]}, "type": "Feature", "id": 17, "properties": {"City": "Ann Arbor", "Match_type": "PP", "Name": "Washtenaw Urgent Care", "Zip": 48104.0, "State": "MI", "Score": 100.0, "OBJECTID": 17, "Street": "3280 Washtenaw Ave."}},{"geometry": {"type": "Point", "coordinates": [-83.48913217091291, 42.20697694882716]}, "type": "Feature", "id": 18, "properties": {"City": "Belleville", "Match_type": "A", "Name": "DMC Care - Belleville Medical Group", "Zip": 48111.0, "State": "MI", "Score": 100.0, "OBJECTID": 18, "Loc_name": "PARCEL_2010", "Street": "265 Main St."}},{"geometry": {"type": "Point", "coordinates": [-83.20912505477742, 42.546158308958866]}, "type": "Feature", "id": 19, "properties": {"City": "Birmingham", "Match_type": "A", "Name": "Birmingham Urgent Care", "Zip": 48009.0, "State": "MI", "Score": 100.0, "OBJECTID": 19, "Loc_name": "PARCEL_2010", "Street": "200 Elm St."}},{"geometry": {"type": "Point", "coordinates": [-83.20396881340997, 42.537030565208454]}, "type": "Feature", "id": 20, "properties": {"City": "Birmingham", "Match_type": "A", "Name": "Meadowbrook Urgent Care", "Zip": 48009.0, "State": "MI", "Score": 100.0, "OBJECTID": 20, "Loc_name": "PARCEL_2010", "Street": "33722 Woodward Ave."}},{"geometry": {"type": "Point", "coordinates": [-83.28214391291124, 42.54526201762809]}, "type": "Feature", "id": 21, "properties": {"City": "Bloomfield Hills", "Match_type": "A", "Name": "DMC Care - Emcura Urgent Care", "Zip": 48301.0, "State": "MI", "Score": 100.0, "OBJECTID": 21, "Loc_name": "PARCEL_2010", "Street": "4050 W. Maple Rd."}},{"geometry": {"type": "Point", "coordinates": [-83.79669795984296, 42.540800087953755]}, "type": "Feature", "id": 22, "properties": {"City": "Brighton", "Match_type": "A", "Name": "Advance Urgent Care & Walk-In Clinic", "Zip": 48116.0, "State": "MI", "Score": 100.0, "OBJECTID": 22, "Loc_name": "PARCEL_2010", "Street": "1021 Karl Greimel Dr."}},{"geometry": {"type": "Point", "coordinates": [-83.8063046429449, 42.56901816795414]}, "type": "Feature", "id": 23, "properties": {"City": "Brighton", "Match_type": "A", "Name": "Brighton Urgent Care", "Zip": 48114.0, "State": "MI", "Score": 100.0, "OBJECTID": 23, "Loc_name": "PARCEL_2010", "Street": "2300 Genoa Business Park Drive"}},{"geometry": {"type": "Point", "coordinates": [-83.19445325051709, 42.54717304100308]}, "type": "Feature", "id": 24, "properties": {"City": "Birmingham", "Match_type": "A", "Name": "St. Joseph Mercy Maple Health & Urgent Care", "Zip": 48009.0, "State": "MI", "Score": 92.41, "OBJECTID": 24, "Loc_name": "MGFv14", "Street": "2110 E. Maple Rd."}},{"geometry": {"type": "Point", "coordinates": [-83.26596146884668, 42.60523142329163]}, "type": "Feature", "id": 25, "properties": {"City": "Bloomfield Hills", "Match_type": "M", "Name": "Bloomfield Urgent Medical Care", "Zip": 48302.0, "State": "MI", "Score": 83.74, "OBJECTID": 25, "Loc_name": "MGFv14", "Street": "43141 Woodward Ave."}},{"geometry": {"type": "Point", "coordinates": [-83.7955314141434, 42.55977726610797]}, "type": "Feature", "id": 26, "properties": {"City": "Brighton", "Match_type": "PP", "Name": "Concentra Urgent Care", "Zip": 48114.0, "State": "MI", "Score": 100.0, "OBJECTID": 26, "Street": "7960 West Grand River Rd., Suite 100"}},{"geometry": {"type": "Point", "coordinates": [-83.03923928826248, 42.886938952370826]}, "type": "Feature", "id": 27, "properties": {"City": "Bruce Township", "Match_type": "M", "Name": "Henry Ford Macomb Urgent Care", "Zip": 48065.0, "State": "MI", "Score": 83.61, "OBJECTID": 27, "Loc_name": "PARCEL_2010", "Street": "80650 Van Dyke Rd."}},{"geometry": {"type": "Point", "coordinates": [-83.44827884639159, 42.32061741036523]}, "type": "Feature", "id": 28, "properties": {"City": "Canton", "Match_type": "A", "Name": "Western Wayne Urgent Care", "Zip": 48187.0, "State": "MI", "Score": 89.04, "OBJECTID": 28, "Loc_name": "PARCEL_2010", "Street": "2050 N Haggerty Rd."}},{"geometry": {"type": "Point", "coordinates": [-83.45157232740092, 42.27841248484833]}, "type": "Feature", "id": 29, "properties": {"City": "Canton", "Match_type": "A", "Name": "Choice Urgent Care of Michigan", "Zip": 48188.0, "State": "MI", "Score": 89.04, "OBJECTID": 29, "Loc_name": "PARCEL_2010", "Street": "41750 Michigan Ave."}},{"geometry": {"type": "Point", "coordinates": [-83.4649830357385, 42.322208686981355]}, "type": "Feature", "id": 30, "properties": {"City": "Canton", "Match_type": "PP", "Name": "DMC Care - Canton Urgent Care", "Zip": 48188.0, "State": "MI", "Score": 100.0, "OBJECTID": 30, "Street": "43033 Ford Road"}},{"geometry": {"type": "Point", "coordinates": [-83.48584552565046, 42.30761507067905]}, "type": "Feature", "id": 31, "properties": {"City": "Canton", "Match_type": "PP", "Name": "DMC Care - Children's Hospital Urgent Care", "Zip": 48188.0, "State": "MI", "Score": 100.0, "OBJECTID": 31, "Street": "45250 Cherry Hill Road"}},{"geometry": {"type": "Point", "coordinates": [-83.48825937616925, 42.29420932659917]}, "type": "Feature", "id": 32, "properties": {"City": "Canton", "Match_type": "M", "Name": "St. Joseph Mercy Canton Urgent Care", "Zip": 48188.0, "State": "MI", "Score": 81.74, "OBJECTID": 32, "Loc_name": "PARCEL_2010", "Street": "1600 S. Canton Center Road"}},{"geometry": {"type": "Point", "coordinates": [-82.80603488250381, 42.676288817774775]}, "type": "Feature", "id": 33, "properties": {"City": "Chesterfield", "Match_type": "A", "Name": "Henry Ford Macomb Urgent Care", "Zip": 48047.0, "State": "MI", "Score": 93.63, "OBJECTID": 33, "Loc_name": "PARCEL_2010", "Street": "30795 23 Mile Road"}},{"geometry": {"type": "Point", "coordinates": [-83.48692940207019, 42.32580964170165]}, "type": "Feature", "id": 34, "properties": {"City": "Canton", "Match_type": "PP", "Name": "Premier Medicine Urgent Care", "Zip": 48187.0, "State": "MI", "Score": 100.0, "OBJECTID": 34, "Street": "5958 N. Canton Rd., Suite 200"}},{"geometry": {"type": "Point", "coordinates": [-83.37670900291812, 42.72763471427072]}, "type": "Feature", "id": 35, "properties": {"City": "Clarkston", "Match_type": "A", "Name": "McLaren Health Care Village - Urgent Care", "Zip": 48346.0, "State": "MI", "Score": 100.0, "OBJECTID": 35, "Loc_name": "PARCEL_2010", "Street": "5701 Bow Pointe Drive, Suite 120"}},{"geometry": {"type": "Point", "coordinates": [-82.84015027761319, 42.66592433084327]}, "type": "Feature", "id": 36, "properties": {"City": "Chesterfield", "Match_type": "A", "Name": "Concentra Urgent Care", "Zip": 48051.0, "State": "MI", "Score": 92.61, "OBJECTID": 36, "Loc_name": "MGFv14", "Street": "50110 Gratiot Ave."}},{"geometry": {"type": "Point", "coordinates": [-82.87465159969156, 42.54841403797752]}, "type": "Feature", "id": 37, "properties": {"City": "Clinton Township", "Match_type": "A", "Name": "Convenient Care After Hours Urgent Care", "Zip": 48035.0, "State": "MI", "Score": 100.0, "OBJECTID": 37, "Loc_name": "PARCEL_2010", "Street": "34336 Harper Ave."}},{"geometry": {"type": "Point", "coordinates": [-82.95228050314267, 42.6107387824689]}, "type": "Feature", "id": 38, "properties": {"City": "Clinton Township", "Match_type": "A", "Name": "DMC Care - Children's Hospital Urgent Care", "Zip": 48038.0, "State": "MI", "Score": 89.04, "OBJECTID": 38, "Loc_name": "PARCEL_2010", "Street": "42700 Garfield Rd."}},{"geometry": {"type": "Point", "coordinates": [-82.9523026336596, 42.619474941615294]}, "type": "Feature", "id": 39, "properties": {"City": "Clinton Township", "Match_type": "A", "Name": "DMC Care - Northeast Macomb Urgent Care", "Zip": 48038.0, "State": "MI", "Score": 89.04, "OBJECTID": 39, "Loc_name": "PARCEL_2010", "Street": "43900 Garfield Rd."}},{"geometry": {"type": "Point", "coordinates": [-83.26376801338307, 42.29786047518081]}, "type": "Feature", "id": 40, "properties": {"City": "Dearborn", "Match_type": "A", "Name": "Community Urgent Care", "Zip": 48124.0, "State": "MI", "Score": 100.0, "OBJECTID": 40, "Loc_name": "PARCEL_2010", "Street": "1816 Grindley Park Street"}},{"geometry": {"type": "Point", "coordinates": [-83.1460284212746, 42.30343284275153]}, "type": "Feature", "id": 41, "properties": {"City": "Dearborn", "Match_type": "A", "Name": "Premier Medicine Urgent Care", "Zip": 48120.0, "State": "MI", "Score": 89.04, "OBJECTID": 41, "Loc_name": "PARCEL_2010", "Street": "10306 Dix Ave."}},{"geometry": {"type": "Point", "coordinates": [-83.17535748326122, 42.321630011016225]}, "type": "Feature", "id": 42, "properties": {"City": "Dearborn", "Match_type": "A", "Name": "Midwest Health Center", "Zip": 48126.0, "State": "MI", "Score": 89.04, "OBJECTID": 42, "Loc_name": "PARCEL_2010", "Street": "4700 Schaefer Rd."}},{"geometry": {"type": "Point", "coordinates": [-83.27052923253802, 42.327279050287984]}, "type": "Feature", "id": 43, "properties": {"City": "Dearborn Heights", "Match_type": "A", "Name": "DMC Care - First Choice Urgent Care", "Zip": 48127.0, "State": "MI", "Score": 89.04, "OBJECTID": 43, "Loc_name": "PARCEL_2010", "Street": "23822 Ford Rd."}},{"geometry": {"type": "Point", "coordinates": [-83.0598525310694, 42.412607655918634]}, "type": "Feature", "id": 44, "properties": {"City": "Detroit", "Match_type": "A", "Name": "DMC Care - A.M. Medical Center", "Zip": 48212.0, "State": "MI", "Score": 89.04, "OBJECTID": 44, "Loc_name": "PARCEL_2010", "Street": "13031 Conant St."}},{"geometry": {"type": "Point", "coordinates": [-83.20156883943037, 42.41566924583907]}, "type": "Feature", "id": 45, "properties": {"City": "Detroit", "Match_type": "A", "Name": "DMC Care - Pickens Medical & Urgent Care", "Zip": 48235.0, "State": "MI", "Score": 89.04, "OBJECTID": 45, "Loc_name": "PARCEL_2010", "Street": "15639 W. McNichols Rd."}},{"geometry": {"type": "Point", "coordinates": [-82.97167980328027, 42.59116478902382]}, "type": "Feature", "id": 46, "properties": {"City": "Clinton Township", "Match_type": "PP", "Name": "Great Lakes Urgent Care", "Zip": 48038.0, "State": "MI", "Score": 100.0, "OBJECTID": 46, "Street": "4472 Hayes Rd."}},{"geometry": {"type": "Point", "coordinates": [-83.16497413754638, 42.34424297463363]}, "type": "Feature", "id": 47, "properties": {"City": "Dearborn", "Match_type": "A", "Name": "DMC Care - Manor Urgent Care", "Zip": 48126.0, "State": "MI", "Score": 93.26, "OBJECTID": 47, "Loc_name": "MGFv14", "Street": "10645 W. Warren Ave."}},{"geometry": {"type": "Point", "coordinates": [-83.2644009103737, 42.30136543266866]}, "type": "Feature", "id": 48, "properties": {"City": "Dearborn Heights", "Match_type": "A", "Name": "DMC Care - First Choice Urgent Care", "Zip": 48124.0, "State": "MI", "Score": 93.14, "OBJECTID": 48, "Loc_name": "MGFv14", "Street": "23455 Michigan Ave."}},{"geometry": {"type": "Point", "coordinates": [-83.19992675111865, 42.4219948657705]}, "type": "Feature", "id": 49, "properties": {"City": "Detroit", "Match_type": "A", "Name": "Green Cross Medical Center", "Zip": 48235.0, "State": "MI", "Score": 89.04, "OBJECTID": 49, "Loc_name": "PARCEL_2010", "Street": "18041 Greenfield Rd."}},{"geometry": {"type": "Point", "coordinates": [-83.26330386158389, 42.44261445958966]}, "type": "Feature", "id": 50, "properties": {"City": "Detroit", "Match_type": "A", "Name": "DMC Care - Woodland Urgent Care", "Zip": 48219.0, "State": "MI", "Score": 89.04, "OBJECTID": 50, "Loc_name": "PARCEL_2010", "Street": "22341 West 8 Mile Road"}},{"geometry": {"type": "Point", "coordinates": [-83.02223944409502, 42.338351274891465]}, "type": "Feature", "id": 51, "properties": {"City": "Detroit", "Match_type": "A", "Name": "Concentra Urgent Care", "Zip": 48207.0, "State": "MI", "Score": 93.85, "OBJECTID": 51, "Loc_name": "MGFv14", "Street": "2630 East Jefferson Ave."}},{"geometry": {"type": "Point", "coordinates": [-83.10852767671088, 42.3309176218508]}, "type": "Feature", "id": 52, "properties": {"City": "Detroit", "Match_type": "A", "Name": "Junction Clinic", "Zip": 48210.0, "State": "MI", "Score": 100.0, "OBJECTID": 52, "Loc_name": "PARCEL_2010", "Street": "4771 Michigan Ave."}},{"geometry": {"type": "Point", "coordinates": [-83.01990592012208, 42.442272312517275]}, "type": "Feature", "id": 53, "properties": {"City": "Detroit", "Match_type": "A", "Name": "Connor Creek Urgent Care", "Zip": 48234.0, "State": "MI", "Score": 100.0, "OBJECTID": 53, "Loc_name": "PARCEL_2010", "Street": "4777 E Outer Dr."}},{"geometry": {"type": "Point", "coordinates": [-82.98233613280627, 42.39148840686454]}, "type": "Feature", "id": 54, "properties": {"City": "Detroit", "Match_type": "A", "Name": "Samaritan Urgent Care", "Zip": 48213.0, "State": "MI", "Score": 89.04, "OBJECTID": 54, "Loc_name": "PARCEL_2010", "Street": "5575 Conner St."}},{"geometry": {"type": "Point", "coordinates": [-83.07662222433612, 42.375955195076244]}, "type": "Feature", "id": 55, "properties": {"City": "Detroit", "Match_type": "A", "Name": "Detroit Medical Group", "Zip": 48202.0, "State": "MI", "Score": 100.0, "OBJECTID": 55, "Loc_name": "PARCEL_2010", "Street": "8282 Woodward Ave."}},{"geometry": {"type": "Point", "coordinates": [-82.9482381170954, 42.371721918032165]}, "type": "Feature", "id": 56, "properties": {"City": "Detroit", "Match_type": "A", "Name": "East Riverside Health Center", "Zip": 48215.0, "State": "MI", "Score": 100.0, "OBJECTID": 56, "Loc_name": "PARCEL_2010", "Street": "13901 East Jefferson"}},{"geometry": {"type": "Point", "coordinates": [-83.13493147250944, 42.345287663994554]}, "type": "Feature", "id": 57, "properties": {"City": "Detroit", "Match_type": "A", "Name": "Dr. Feleta Wilson Health Center", "Zip": 48210.0, "State": "MI", "Score": 100.0, "OBJECTID": 57, "Loc_name": "PARCEL_2010", "Street": "6550 West Warren"}},{"geometry": {"type": "Point", "coordinates": [-83.0011661315117, 42.357827065067056]}, "type": "Feature", "id": 58, "properties": {"City": "Detroit", "Match_type": "M", "Name": "Dr. Sophie Womack Health Center", "Zip": 48214.0, "State": "MI", "Score": 82.89, "OBJECTID": 58, "Loc_name": "MGFv14", "Street": "7900 Kercheval"}},{"geometry": {"type": "Point", "coordinates": [-83.06310883230674, 42.344779315013454]}, "type": "Feature", "id": 59, "properties": {"City": "Detroit", "Match_type": "A", "Name": "Woodward Corridor Family Health Center", "Zip": 48201.0, "State": "MI", "Score": 93.85, "OBJECTID": 59, "Loc_name": "MGFv14", "Street": "611 Martin Luther King Jr. Blvd."}},{"geometry": {"type": "Point", "coordinates": [-83.67562334793911, 41.95795770858143]}, "type": "Feature", "id": 60, "properties": {"City": "Dundee", "Match_type": "A", "Name": "Dundee Urgent Care", "Zip": 48131.0, "State": "MI", "Score": 100.0, "OBJECTID": 60, "Loc_name": "PARCEL_2010", "Street": "100 Powell Dr."}},{"geometry": {"type": "Point", "coordinates": [-83.35911555763681, 42.51725275660948]}, "type": "Feature", "id": 61, "properties": {"City": "Farmington Hills", "Match_type": "A", "Name": "Orchard Medical Urgent Care", "Zip": 48334.0, "State": "MI", "Score": 100.0, "OBJECTID": 61, "Loc_name": "PARCEL_2010", "Street": "30000 Orchard Lake Rd."}},{"geometry": {"type": "Point", "coordinates": [-83.39243500327274, 42.496494202245685]}, "type": "Feature", "id": 62, "properties": {"City": "Farmington Hills", "Match_type": "A", "Name": "Northeast Macomb Urgent Care", "Zip": 48331.0, "State": "MI", "Score": 100.0, "OBJECTID": 62, "Loc_name": "PARCEL_2010", "Street": "34405 W. 12 Mile Rd., Suite 173"}},{"geometry": {"type": "Point", "coordinates": [-83.14273170630315, 42.460093028170775]}, "type": "Feature", "id": 63, "properties": {"City": "Ferndale", "Match_type": "A", "Name": "Michigan Urgent Care and Occupational Health", "Zip": 48220.0, "State": "MI", "Score": 100.0, "OBJECTID": 63, "Loc_name": "PARCEL_2010", "Street": "641 West 9 Mile Road"}},{"geometry": {"type": "Point", "coordinates": [-82.45438972190811, 43.02968585771623]}, "type": "Feature", "id": 64, "properties": {"City": "Fort Gratiot", "Match_type": "A", "Name": "Physician HealthCare Network", "Zip": 48059.0, "State": "MI", "Score": 100.0, "OBJECTID": 64, "Loc_name": "PARCEL_2010", "Street": "4190 24th Ave., Suite 206"}},{"geometry": {"type": "Point", "coordinates": [-83.33045799693895, 42.32452785417718]}, "type": "Feature", "id": 65, "properties": {"City": "Garden City", "Match_type": "A", "Name": "DMC Care - Garden City Urgent Care", "Zip": 48135.0, "State": "MI", "Score": 89.04, "OBJECTID": 65, "Loc_name": "PARCEL_2010", "Street": "2020 Middlebelt Rd."}},{"geometry": {"type": "Point", "coordinates": [-83.33070396601516, 42.33083952922095]}, "type": "Feature", "id": 66, "properties": {"City": "Garden City", "Match_type": "A", "Name": "Urgent Care One", "Zip": 48135.0, "State": "MI", "Score": 89.04, "OBJECTID": 66, "Loc_name": "PARCEL_2010", "Street": "6200 Middlebelt Rd."}},{"geometry": {"type": "Point", "coordinates": [-83.15684131467492, 42.13095348721373]}, "type": "Feature", "id": 67, "properties": {"City": "Grosse Ile", "Match_type": "A", "Name": "Down River Clinic", "Zip": 48138.0, "State": "Mi", "Score": 89.04, "OBJECTID": 67, "Loc_name": "PARCEL_2010", "Street": "8944 Macomb St."}},{"geometry": {"type": "Point", "coordinates": [-82.9084349875846, 42.43749449057833]}, "type": "Feature", "id": 68, "properties": {"City": "Grosse Pointe Woods", "Match_type": "A", "Name": "Grosse Pointe Urgent Care", "Zip": 48236.0, "State": "MI", "Score": 100.0, "OBJECTID": 68, "Loc_name": "PARCEL_2010", "Street": "20311 Mack Ave."}},{"geometry": {"type": "Point", "coordinates": [-83.8081417771213, 42.45666492314774]}, "type": "Feature", "id": 69, "properties": {"City": "Hamburg", "Match_type": "A", "Name": "IHA Urgent Care", "Zip": 48139.0, "State": "MI", "Score": 100.0, "OBJECTID": 69, "Loc_name": "PARCEL_2010", "Street": "10020 Professional Center Drive, Suite 120"}},{"geometry": {"type": "Point", "coordinates": [-83.05056686366976, 42.39972416793603]}, "type": "Feature", "id": 70, "properties": {"City": "Hamtramck", "Match_type": "A", "Name": "Hamtramck Medical Urgent Care", "Zip": 48212.0, "State": "MI", "Score": 89.04, "OBJECTID": 70, "Loc_name": "PARCEL_2010", "Street": "9740 Conant St."}},{"geometry": {"type": "Point", "coordinates": [-82.82731318925227, 42.59145078602501]}, "type": "Feature", "id": 71, "properties": {"City": "Harrison Township", "Match_type": "A", "Name": "McLaren Family Practice and Convenient Care", "Zip": 48045.0, "State": "MI", "Score": 89.04, "OBJECTID": 71, "Loc_name": "PARCEL_2010", "Street": "39833 Bridgeview St."}},{"geometry": {"type": "Point", "coordinates": [-83.72724234156078, 42.635719920038355]}, "type": "Feature", "id": 72, "properties": {"City": "Hartland", "Match_type": "A", "Name": "Advance Urgent Care & Walk-In Clinic", "Zip": 48353.0, "State": "MI", "Score": 100.0, "OBJECTID": 72, "Loc_name": "PARCEL_2010", "Street": "11554 Highland Rd."}},{"geometry": {"type": "Point", "coordinates": [-83.10459050055113, 42.44749457671338]}, "type": "Feature", "id": 73, "properties": {"City": "Hazel Park", "Match_type": "A", "Name": "Bi-County Health Care", "Zip": 48030.0, "State": "MI", "Score": 100.0, "OBJECTID": 73, "Loc_name": "PARCEL_2010", "Street": "116 W. 8 Mile Rd."}},{"geometry": {"type": "Point", "coordinates": [-83.0991061784074, 42.46127337576576]}, "type": "Feature", "id": 74, "properties": {"City": "Hazel Park", "Match_type": "A", "Name": "Hazel Park Urgent Care", "Zip": 48030.0, "State": "MI", "Score": 100.0, "OBJECTID": 74, "Loc_name": "PARCEL_2010", "Street": "624 E. 9 Mile Rd."}},{"geometry": {"type": "Point", "coordinates": [-83.35699444453797, 42.4681047474362]}, "type": "Feature", "id": 75, "properties": {"City": "Farmington Hills", "Match_type": "A", "Name": "DMC Care", "Zip": 48336.0, "State": "MI", "Score": 92.26, "OBJECTID": 75, "Loc_name": "MGFv14", "Street": "23900 Orchard Lake Rd."}},{"geometry": {"type": "Point", "coordinates": [-82.9345829964081, 42.540001851504314]}, "type": "Feature", "id": 76, "properties": {"City": "Fraser", "Match_type": "A", "Name": "Concentra Urgent Care", "Zip": 48026.0, "State": "MI", "Score": 93.14, "OBJECTID": 76, "Loc_name": "MGFv14", "Street": "33089 Groesbeck Hwy."}},{"geometry": {"type": "Point", "coordinates": [-83.05447176585926, 42.39147924637018]}, "type": "Feature", "id": 77, "properties": {"City": "Hamtramck", "Match_type": "PP", "Name": "DMC Care - Hamtramck Urgent Care", "Zip": 48212.0, "State": "MI", "Score": 100.0, "OBJECTID": 77, "Street": "9009 Jos Campau St."}},{"geometry": {"type": "Point", "coordinates": [-82.85199336869897, 42.57217286918262]}, "type": "Feature", "id": 78, "properties": {"City": "Harrison Township", "Match_type": "A", "Name": "St John Medical Center - Harrison Township", "Zip": 48045.0, "State": "MI", "Score": 92.95, "OBJECTID": 78, "Loc_name": "MGFv14", "Street": "25990 Crocker Blvd."}},{"geometry": {"type": "Point", "coordinates": [-83.31023074495289, 42.309358708637546]}, "type": "Feature", "id": 79, "properties": {"City": "Inkster", "Match_type": "A", "Name": "The Heights Urgent Care", "Zip": 48141.0, "State": "MI", "Score": 89.04, "OBJECTID": 79, "Loc_name": "PARCEL_2010", "Street": "337 Inkster Rd."}},{"geometry": {"type": "Point", "coordinates": [-83.10423717850296, 42.432193396308264]}, "type": "Feature", "id": 80, "properties": {"City": "Highland Park", "Match_type": "A", "Name": "Nolan Family Health Center", "Zip": 48203.0, "State": "MI", "Score": 92.56, "OBJECTID": 80, "Loc_name": "MGFv14", "Street": "111 West 7 Mile Rd."}},{"geometry": {"type": "Point", "coordinates": [-82.7257421466827, 42.72046181695936]}, "type": "Feature", "id": 81, "properties": {"City": "Ira", "Match_type": "A", "Name": "Physician HealthCare Network", "Zip": 48023.0, "State": "MI", "Score": 95.42, "OBJECTID": 81, "Loc_name": "PARCEL_2010", "Street": "10127 Marine City Hwy."}},{"geometry": {"type": "Point", "coordinates": [-83.91711554054973, 42.602510206081206]}, "type": "Feature", "id": 82, "properties": {"City": "Howell", "Match_type": "M", "Name": "Advance Urgent Care & Walk-In Clinic", "Zip": 48843.0, "State": "MI", "Score": 82.18, "OBJECTID": 82, "Loc_name": "MGFv14", "Street": "1255 E. Grand River Ave."}},{"geometry": {"type": "Point", "coordinates": [-83.34913089847214, 42.59760554286157]}, "type": "Feature", "id": 83, "properties": {"City": "Keego Harbor", "Match_type": "A", "Name": "Keego Harbor Urgent Care", "Zip": 48320.0, "State": "MI", "Score": 100.0, "OBJECTID": 83, "Loc_name": "PARCEL_2010", "Street": "3435 Orchard Lake Rd."}},{"geometry": {"type": "Point", "coordinates": [-83.87050573115454, 42.58554118617684]}, "type": "Feature", "id": 84, "properties": {"City": "Howell", "Match_type": "M", "Name": "RediCare", "Zip": 48843.0, "State": "MI", "Score": 82.18, "OBJECTID": 84, "Loc_name": "MGFv14", "Street": "4185 E. Grand River"}},{"geometry": {"type": "Point", "coordinates": [-83.24177638777002, 42.76187311685089]}, "type": "Feature", "id": 85, "properties": {"City": "Lake Orion", "Match_type": "A", "Name": "Lake Orion Urgent Care", "Zip": 48360.0, "State": "MI", "Score": 100.0, "OBJECTID": 85, "Loc_name": "PARCEL_2010", "Street": "1375 S. Lapeer Rd."}},{"geometry": {"type": "Point", "coordinates": [-83.24278508446406, 42.76021527781285]}, "type": "Feature", "id": 86, "properties": {"City": "Lake Orion", "Match_type": "A", "Name": "Orion Oxford Urgent Care", "Zip": 48360.0, "State": "MI", "Score": 100.0, "OBJECTID": 86, "Loc_name": "PARCEL_2010", "Street": "1455 S. Lapeer Rd."}},{"geometry": {"type": "Point", "coordinates": [-83.1661958467609, 42.24731467403302]}, "type": "Feature", "id": 87, "properties": {"City": "Lincoln Park", "Match_type": "A", "Name": "Metro Urgent Care & Family", "Zip": 48146.0, "State": "Mi", "Score": 89.04, "OBJECTID": 87, "Loc_name": "PARCEL_2010", "Street": "752 Southfield Rd."}},{"geometry": {"type": "Point", "coordinates": [-83.3363809184446, 42.43791193608706]}, "type": "Feature", "id": 88, "properties": {"City": "Livonia", "Match_type": "A", "Name": "Premier Medicine Urgent Care", "Zip": 48152.0, "State": "MI", "Score": 95.14, "OBJECTID": 88, "Loc_name": "MGFv14", "Street": "20290 Middlebelt Rd."}},{"geometry": {"type": "Point", "coordinates": [-83.32229239827552, 42.38425653740933]}, "type": "Feature", "id": 89, "properties": {"City": "Livonia", "Match_type": "A", "Name": "Concentra Urgent Care", "Zip": 48150.0, "State": "MI", "Score": 95.14, "OBJECTID": 89, "Loc_name": "MGFv14", "Street": "28196 Schoolcraft Rd."}},{"geometry": {"type": "Point", "coordinates": [-83.37889731695759, 42.368114815546335]}, "type": "Feature", "id": 90, "properties": {"City": "Livonia", "Match_type": "A", "Name": "Concentra Urgent Care", "Zip": 48150.0, "State": "MI", "Score": 95.14, "OBJECTID": 90, "Loc_name": "MGFv14", "Street": "34095 Plymouth Rd."}},{"geometry": {"type": "Point", "coordinates": [-83.41569978201926, 42.42399215301549]}, "type": "Feature", "id": 91, "properties": {"City": "Livonia", "Match_type": "A", "Name": "Livonia Urgent Care", "Zip": 48152.0, "State": "MI", "Score": 89.04, "OBJECTID": 91, "Loc_name": "PARCEL_2010", "Street": "37595 7 Mile Rd."}},{"geometry": {"type": "Point", "coordinates": [-82.9641396893951, 42.62976194295936]}, "type": "Feature", "id": 92, "properties": {"City": "Macomb Township", "Match_type": "A", "Name": "MPC Urgent Care", "Zip": 48044.0, "State": "MI", "Score": 98.73, "OBJECTID": 92, "Loc_name": "PARCEL_2010", "Street": "15959 Hall Rd."}},{"geometry": {"type": "Point", "coordinates": [-82.93745435183683, 42.640173821464714]}, "type": "Feature", "id": 93, "properties": {"City": "Macomb Township", "Match_type": "A", "Name": "Cornerstone After Hours Medical Care", "Zip": 48044.0, "State": "MI", "Score": 98.73, "OBJECTID": 93, "Loc_name": "PARCEL_2010", "Street": "46591 Romeo Plank Rd."}},{"geometry": {"type": "Point", "coordinates": [-82.94463608408796, 42.6701607833935]}, "type": "Feature", "id": 94, "properties": {"City": "Macomb Township", "Match_type": "A", "Name": "St John Medical Center - Macomb Township", "Zip": 48044.0, "State": "MI", "Score": 98.73, "OBJECTID": 94, "Loc_name": "PARCEL_2010", "Street": "17700 23 Mile Rd."}},{"geometry": {"type": "Point", "coordinates": [-83.09301594882692, 42.505439235232586]}, "type": "Feature", "id": 95, "properties": {"City": "Madison Heights", "Match_type": "A", "Name": "Oakland Family Practice & Urgent Care", "Zip": 48071.0, "State": "MI", "Score": 100.0, "OBJECTID": 95, "Loc_name": "PARCEL_2010", "Street": "1385 E. 12 Mile Rd."}},{"geometry": {"type": "Point", "coordinates": [-82.89545338716403, 42.673124938964804]}, "type": "Feature", "id": 96, "properties": {"City": "Macomb Township", "Match_type": "A", "Name": "Summit Urgent Care", "Zip": 48042.0, "State": "MI", "Score": 92.87, "OBJECTID": 96, "Loc_name": "MGFv14", "Street": "21844 23 Mile Rd."}},{"geometry": {"type": "Point", "coordinates": [-83.08581364997991, 42.4981760594776]}, "type": "Feature", "id": 97, "properties": {"City": "Madison Heights", "Match_type": "A", "Name": "DMC Care - Madison Heights Urgent Care", "Zip": 48071.0, "State": "MI", "Score": 100.0, "OBJECTID": 97, "Loc_name": "PARCEL_2010", "Street": "28037 Dequindre Rd."}},{"geometry": {"type": "Point", "coordinates": [-82.49869147253338, 42.91092181638879]}, "type": "Feature", "id": 98, "properties": {"City": "Marysville", "Match_type": "A", "Name": "Physician HealthCare Network", "Zip": 48040.0, "State": "MI", "Score": 89.04, "OBJECTID": 98, "Loc_name": "PARCEL_2010", "Street": "3350 Gratiot Blvd."}},{"geometry": {"type": "Point", "coordinates": [-83.59886565192824, 42.59117852616811]}, "type": "Feature", "id": 99, "properties": {"City": "Milford", "Match_type": "A", "Name": "Milford Urgent Care", "Zip": 48381.0, "State": "MI", "Score": 100.0, "OBJECTID": 99, "Loc_name": "PARCEL_2010", "Street": "414 Union St."}},{"geometry": {"type": "Point", "coordinates": [-83.392167510722, 41.93569916418511]}, "type": "Feature", "id": 100, "properties": {"City": "Monroe", "Match_type": "PP", "Name": "Monroe Urgent Care", "Zip": 48162.0, "State": "MI", "Score": 100.0, "OBJECTID": 100, "Street": "337 Steward Road"}},{"geometry": {"type": "Point", "coordinates": [-83.61584925703755, 42.51468883712022]}, "type": "Feature", "id": 101, "properties": {"City": "New Hudson", "Match_type": "A", "Name": "Healthy Urgent Care", "Zip": 48165.0, "State": "MI", "Score": 93.34, "OBJECTID": 101, "Loc_name": "MGFv14", "Street": "30488 Milford Road"}},{"geometry": {"type": "Point", "coordinates": [-83.46900052315556, 42.47802171912707]}, "type": "Feature", "id": 102, "properties": {"City": "Novi", "Match_type": "A", "Name": "Concentra Urgent Care", "Zip": 48375.0, "State": "MI", "Score": 100.0, "OBJECTID": 102, "Loc_name": "PARCEL_2010", "Street": "42875 Grand River Avenue, Suite 101"}},{"geometry": {"type": "Point", "coordinates": [-83.4754540122928, 42.42908185804134]}, "type": "Feature", "id": 103, "properties": {"City": "Northville", "Match_type": "M", "Name": "Medical Clinic of Northville", "Zip": 48167.0, "State": "MI", "Score": 92.41, "OBJECTID": 103, "Loc_name": "MGFv14", "Street": "308 S. Main St."}},{"geometry": {"type": "Point", "coordinates": [-83.4820462991973, 42.49619787113488]}, "type": "Feature", "id": 104, "properties": {"City": "Novi", "Match_type": "A", "Name": "Urgent Care of Novi", "Zip": 48377.0, "State": "MI", "Score": 100.0, "OBJECTID": 104, "Loc_name": "PARCEL_2010", "Street": "44000 W 12 Mile Rd."}},{"geometry": {"type": "Point", "coordinates": [-83.47680785439894, 42.48103992665136]}, "type": "Feature", "id": 105, "properties": {"City": "Novi", "Match_type": "A", "Name": "Urgent Care 1", "Zip": 48375.0, "State": "MI", "Score": 90.85, "OBJECTID": 105, "Loc_name": "MGFv14", "Street": "43535 Grand River Ave."}},{"geometry": {"type": "Point", "coordinates": [-83.18255149035895, 42.47210163947915]}, "type": "Feature", "id": 106, "properties": {"City": "Oak Park", "Match_type": "A", "Name": "Oak Park Urgent Care", "Zip": 48237.0, "State": "MI", "Score": 93.26, "OBJECTID": 106, "Loc_name": "MGFv14", "Street": "24661 Coolidge Hwy"}},{"geometry": {"type": "Point", "coordinates": [-83.26255812485755, 42.822501435093216]}, "type": "Feature", "id": 107, "properties": {"City": "Oxford", "Match_type": "PP", "Name": "Oxford Urgent Care", "Zip": 48371.0, "State": "MI", "Score": 100.0, "OBJECTID": 107, "Street": "72 S. Washington St."}},{"geometry": {"type": "Point", "coordinates": [-83.45055775093942, 42.359236296417976]}, "type": "Feature", "id": 108, "properties": {"City": "Plymouth", "Match_type": "A", "Name": "Plymouth Urgent Care", "Zip": 48170.0, "State": "MI", "Score": 94.72, "OBJECTID": 108, "Loc_name": "MGFv14", "Street": "41424 Ann Arbor Road"}},{"geometry": {"type": "Point", "coordinates": [-83.50879812003717, 42.394121627211405]}, "type": "Feature", "id": 109, "properties": {"City": "Plymouth", "Match_type": "A", "Name": "Northville Urgent Care", "Zip": 48170.0, "State": "MI", "Score": 94.72, "OBJECTID": 109, "Loc_name": "MGFv14", "Street": "47311 Five Mile Rd"}},{"geometry": {"type": "Point", "coordinates": [-83.30941890535814, 42.6341463510733]}, "type": "Feature", "id": 110, "properties": {"City": "Pontiac", "Match_type": "A", "Name": "Doctors' Hospital of Michigan Urgent Care", "Zip": 48341.0, "State": "MI", "Score": 100.0, "OBJECTID": 110, "Loc_name": "PARCEL_2010", "Street": "461 West Huron Street"}},{"geometry": {"type": "Point", "coordinates": [-83.25236719359106, 42.67574019355516]}, "type": "Feature", "id": 111, "properties": {"City": "Pontiac", "Match_type": "M", "Name": "Concentra Urgent Care", "Zip": 48340.0, "State": "MI", "Score": 82.89, "OBJECTID": 111, "Loc_name": "MGFv14", "Street": "1915 N. Perry Street"}},{"geometry": {"type": "Point", "coordinates": [-82.43329326617123, 42.96645095614679]}, "type": "Feature", "id": 112, "properties": {"City": "Port Huron", "Match_type": "A", "Name": "Physician HealthCare Network", "Zip": 48040.0, "State": "MI", "Score": 85.0, "OBJECTID": 112, "Loc_name": "PARCEL_2010", "Street": "1641 10th Street"}},{"geometry": {"type": "Point", "coordinates": [-82.45018515392167, 43.015839485404]}, "type": "Feature", "id": 113, "properties": {"City": "Port Huron", "Match_type": "PP", "Name": "MedExpres Urgent Care", "Zip": 48059.0, "State": "MI", "Score": 100.0, "OBJECTID": 113, "Street": "3550 Pine Grove Ave."}},{"geometry": {"type": "Point", "coordinates": [-83.26833320231538, 42.37115234950136]}, "type": "Feature", "id": 114, "properties": {"City": "Redford", "Match_type": "A", "Name": "Redford Urgent Care Medical Clinic", "Zip": 48239.0, "State": "MI", "Score": 89.04, "OBJECTID": 114, "Loc_name": "PARCEL_2010", "Street": "23405 Plymouth Rd."}},{"geometry": {"type": "Point", "coordinates": [-83.31033153737053, 42.355746852235484]}, "type": "Feature", "id": 115, "properties": {"City": "Redford", "Match_type": "A", "Name": "Priority One Urgent Care Center", "Zip": 48239.0, "State": "MI", "Score": 89.04, "OBJECTID": 115, "Loc_name": "PARCEL_2010", "Street": "27144 Joy Road"}},{"geometry": {"type": "Point", "coordinates": [-83.2956187312194, 42.40309981640348]}, "type": "Feature", "id": 116, "properties": {"City": "Redford", "Match_type": "A", "Name": "Midwest Urgent Care", "Zip": 48239.0, "State": "MI", "Score": 87.98, "OBJECTID": 116, "Loc_name": "PARCEL_2010", "Street": "15540 Beech Daily Road"}},{"geometry": {"type": "Point", "coordinates": [-83.09614223147878, 42.62474094254054]}, "type": "Feature", "id": 117, "properties": {"City": "Rochester Hills", "Match_type": "A", "Name": "DocNow Urgent Care", "Zip": 48307.0, "State": "MI", "Score": 100.0, "OBJECTID": 117, "Loc_name": "PARCEL_2010", "Street": "1701 South Blvd. E."}},{"geometry": {"type": "Point", "coordinates": [-83.12510185916341, 42.63639526952613]}, "type": "Feature", "id": 118, "properties": {"City": "Rochester Hills", "Match_type": "A", "Name": "Rochester Urgent Care", "Zip": 48307.0, "State": "MI", "Score": 93.14, "OBJECTID": 118, "Loc_name": "MGFv14", "Street": "215 E. Auburn Rd."}},{"geometry": {"type": "Point", "coordinates": [-83.13180666114846, 42.623656819706525]}, "type": "Feature", "id": 119, "properties": {"City": "Rochester Hills", "Match_type": "A", "Name": "Rochester Medical Group", "Zip": 48307.0, "State": "MI", "Score": 100.0, "OBJECTID": 119, "Loc_name": "PARCEL_2010", "Street": "3950 S. Rochester Rd."}},{"geometry": {"type": "Point", "coordinates": [-83.38260815264408, 42.21906465640882]}, "type": "Feature", "id": 120, "properties": {"City": "Romulus", "Match_type": "A", "Name": "Concentra Urgent Care", "Zip": 48174.0, "State": "MI", "Score": 100.0, "OBJECTID": 120, "Loc_name": "PARCEL_2010", "Street": "11700 Metro Airport Center Dr., Suite 104"}},{"geometry": {"type": "Point", "coordinates": [-83.3328498779195, 42.25364998775677]}, "type": "Feature", "id": 121, "properties": {"City": "Romulus", "Match_type": "A", "Name": "Concentra Urgent Care", "Zip": 48174.0, "State": "MI", "Score": 89.04, "OBJECTID": 121, "Loc_name": "PARCEL_2010", "Street": "29750 Ecorse Road"}},{"geometry": {"type": "Point", "coordinates": [-83.38690390199343, 42.23566313854309]}, "type": "Feature", "id": 122, "properties": {"City": "Romulus", "Match_type": "A", "Name": "Hope Urgent Care", "Zip": 48174.0, "State": "MI", "Score": 89.04, "OBJECTID": 122, "Loc_name": "PARCEL_2010", "Street": "9340 Wayne Road"}},{"geometry": {"type": "Point", "coordinates": [-83.12423276333135, 42.49889280385986]}, "type": "Feature", "id": 123, "properties": {"City": "Royal Oak", "Match_type": "A", "Name": "Campbell Urgent Care", "Zip": 48067.0, "State": "MI", "Score": 100.0, "OBJECTID": 123, "Loc_name": "PARCEL_2010", "Street": "1010 N. Campbell Rd."}},{"geometry": {"type": "Point", "coordinates": [-83.18424831141039, 42.538178828590105]}, "type": "Feature", "id": 124, "properties": {"City": "Royal Oak", "Match_type": "A", "Name": "DMC Care - Birmingham Royal Oak Med Group", "Zip": 48073.0, "State": "MI", "Score": 100.0, "OBJECTID": 124, "Loc_name": "PARCEL_2010", "Street": "5130 Coolidge Hwy."}},{"geometry": {"type": "Point", "coordinates": [-82.90769861729729, 42.483308426043095]}, "type": "Feature", "id": 125, "properties": {"City": "Saint Clair Shores", "Match_type": "A", "Name": "Shores Urgent Care", "Zip": 48081.0, "State": "MI", "Score": 88.98, "OBJECTID": 125, "Loc_name": "PARCEL_2010", "Street": "25631 Little Mack Ave."}},{"geometry": {"type": "Point", "coordinates": [-82.90322876639442, 42.53284870870101]}, "type": "Feature", "id": 126, "properties": {"City": "Saint Clair Shores", "Match_type": "A", "Name": "St John Medical Center - Masonic", "Zip": 48082.0, "State": "MI", "Score": 99.93, "OBJECTID": 126, "Loc_name": "PARCEL_2010", "Street": "21099 Masonic"}},{"geometry": {"type": "Point", "coordinates": [-83.75791863024057, 42.17604084780692]}, "type": "Feature", "id": 127, "properties": {"City": "Saline", "Match_type": "A", "Name": "Advance Urgent Care & Walk-In Clinic", "Zip": 48176.0, "State": "MI", "Score": 100.0, "OBJECTID": 127, "Loc_name": "PARCEL_2010", "Street": "140 S. Industrial Dr."}},{"geometry": {"type": "Point", "coordinates": [-83.79026875419959, 42.16655315760221]}, "type": "Feature", "id": 128, "properties": {"City": "Saline", "Match_type": "A", "Name": "St. Joseph Mercy Saline Urgent Care", "Zip": 48176.0, "State": "MI", "Score": 90.87, "OBJECTID": 128, "Loc_name": "PARCEL_2010", "Street": "400 W. Russell Street"}},{"geometry": {"type": "Point", "coordinates": [-82.90541291747212, 42.509342956612215]}, "type": "Feature", "id": 129, "properties": {"City": "Saint Clair Shores", "Match_type": "PP", "Name": "St John Eastside Urgent Care", "Zip": 48081.0, "State": "MI", "Score": 100.0, "OBJECTID": 129, "Street": "21000 E. 12 Mile Rd."}},{"geometry": {"type": "Point", "coordinates": [-83.09306407784487, 42.67400490580184]}, "type": "Feature", "id": 130, "properties": {"City": "Shelby Township", "Match_type": "A", "Name": "Shelby Urgent Care", "Zip": 48316.0, "State": "MI", "Score": 89.04, "OBJECTID": 130, "Loc_name": "PARCEL_2010", "Street": "51850 Dequindre Road"}},{"geometry": {"type": "Point", "coordinates": [-82.99715851955, 42.667266598674644]}, "type": "Feature", "id": 131, "properties": {"City": "Shelby Township", "Match_type": "PP", "Name": "Henry Ford Macomb Urgent Care", "Zip": 48315.0, "State": "MI", "Score": 100.0, "OBJECTID": 131, "Street": "50505 Schoenherr Road"}},{"geometry": {"type": "Point", "coordinates": [-83.64883777554286, 42.44521232938553]}, "type": "Feature", "id": 132, "properties": {"City": "South Lyon", "Match_type": "A", "Name": "Advance Urgent Care & Walk-In Clinic", "Zip": 48178.0, "State": "MI", "Score": 100.0, "OBJECTID": 132, "Loc_name": "PARCEL_2010", "Street": "22316 Pontiac Trail"}},{"geometry": {"type": "Point", "coordinates": [-83.21990156520502, 42.46582835019825]}, "type": "Feature", "id": 133, "properties": {"City": "Southfield", "Match_type": "A", "Name": "Southfield Urgent Care", "Zip": 48075.0, "State": "MI", "Score": 100.0, "OBJECTID": 133, "Loc_name": "PARCEL_2010", "Street": "23832 Southfield Rd."}},{"geometry": {"type": "Point", "coordinates": [-83.20184936495622, 42.46909195213192]}, "type": "Feature", "id": 134, "properties": {"City": "Southfield", "Match_type": "A", "Name": "Greenfield Medical Urgent Care", "Zip": 48075.0, "State": "MI", "Score": 100.0, "OBJECTID": 134, "Loc_name": "PARCEL_2010", "Street": "24261 Greenfield Rd."}},{"geometry": {"type": "Point", "coordinates": [-83.20233110839388, 42.48212477613754]}, "type": "Feature", "id": 135, "properties": {"City": "Southfield", "Match_type": "PP", "Name": "Concentra Urgent Care", "Zip": 48075.0, "State": "MI", "Score": 100.0, "OBJECTID": 135, "Street": "26185 Greenfield Rd."}},{"geometry": {"type": "Point", "coordinates": [-83.20101067430312, 42.21319808102669]}, "type": "Feature", "id": 136, "properties": {"City": "Southgate", "Match_type": "A", "Name": "DMC Care - Southgate Urgent Care", "Zip": 48195.0, "State": "MI", "Score": 89.04, "OBJECTID": 136, "Loc_name": "PARCEL_2010", "Street": "14523 Northline Rd."}},{"geometry": {"type": "Point", "coordinates": [-83.20718997004104, 42.20200543899989]}, "type": "Feature", "id": 137, "properties": {"City": "Southgate", "Match_type": "PP", "Name": "DMC Care - Dix-Eureka Med Center", "Zip": 48195.0, "State": "MI", "Score": 100.0, "OBJECTID": 137, "Street": "14797 Toledo Road"}},{"geometry": {"type": "Point", "coordinates": [-83.21697497161762, 42.212393568208654]}, "type": "Feature", "id": 138, "properties": {"City": "Southgate", "Match_type": "A", "Name": "Oakwood Healthcare Center - Urgent Care", "Zip": 48195.0, "State": "MI", "Score": 89.04, "OBJECTID": 138, "Loc_name": "PARCEL_2010", "Street": "15777 Northline Rd."}},{"geometry": {"type": "Point", "coordinates": [-83.18064739176367, 42.19267726874102]}, "type": "Feature", "id": 139, "properties": {"City": "Southgate", "Match_type": "A", "Name": "DMC Care - Downriver Urgent Care", "Zip": 48195.0, "State": "MI", "Score": 100.0, "OBJECTID": 139, "Loc_name": "PARCEL_2010", "Street": "15830 Fort St."}},{"geometry": {"type": "Point", "coordinates": [-83.08216374785866, 42.535007661674285]}, "type": "Feature", "id": 140, "properties": {"City": "Sterling Heights", "Match_type": "M", "Name": "Macomb Medical Clinic", "Zip": 48310.0, "State": "MI", "Score": 84.01, "OBJECTID": 140, "Loc_name": "MGFv14", "Street": "2405 E. 14 Mile Road"}},{"geometry": {"type": "Point", "coordinates": [-82.99013527842033, 42.57284822406632]}, "type": "Feature", "id": 141, "properties": {"City": "Sterling Heights", "Match_type": "A", "Name": "Sterling Heights Urgent Care", "Zip": 48312.0, "State": "MI", "Score": 93.14, "OBJECTID": 141, "Loc_name": "MGFv14", "Street": "37771 Schoenherr Road"}},{"geometry": {"type": "Point", "coordinates": [-83.0303705078926, 42.59296935065504]}, "type": "Feature", "id": 142, "properties": {"City": "Sterling Heights", "Match_type": "M", "Name": "Concentra Urgent Care", "Zip": 48313.0, "State": "MI", "Score": 82.18, "OBJECTID": 142, "Loc_name": "MGFv14", "Street": "40732 Van Dyke Rd."}},{"geometry": {"type": "Point", "coordinates": [-83.09067147111148, 42.608838336919746]}, "type": "Feature", "id": 143, "properties": {"City": "Sterling Heights", "Match_type": "A", "Name": "Anchor Medical Center Urgent Care", "Zip": 48314.0, "State": "MI", "Score": 93.14, "OBJECTID": 143, "Loc_name": "MGFv14", "Street": "43138 Dequindre Rd."}},{"geometry": {"type": "Point", "coordinates": [-83.32652833461492, 42.612541074211265]}, "type": "Feature", "id": 144, "properties": {"City": "Sylvan Lake", "Match_type": "A", "Name": "Healing Hands Urgent Care", "Zip": 48320.0, "State": "MI", "Score": 94.18, "OBJECTID": 144, "Loc_name": "PARCEL_2010", "Street": "2157 Orchard Lake Rd."}},{"geometry": {"type": "Point", "coordinates": [-83.26978800411308, 42.2348649290733]}, "type": "Feature", "id": 145, "properties": {"City": "Taylor", "Match_type": "A", "Name": "Urgent Care Holdings", "Zip": 48180.0, "State": "MI", "Score": 85.84, "OBJECTID": 145, "Loc_name": "MGFv14", "Street": "9870 Telegraph Rd."}},{"geometry": {"type": "Point", "coordinates": [-83.56745947077792, 41.760827064317596]}, "type": "Feature", "id": 146, "properties": {"City": "Temperance", "Match_type": "A", "Name": "Bedford Urgent Care", "Zip": 48182.0, "State": "MI", "Score": 89.04, "OBJECTID": 146, "Loc_name": "PARCEL_2010", "Street": "7980 Lewis Ave."}},{"geometry": {"type": "Point", "coordinates": [-83.21259184683623, 42.14023027200949]}, "type": "Feature", "id": 147, "properties": {"City": "Trenton", "Match_type": "A", "Name": "DMC Care - The River Urgent Care", "Zip": 48183.0, "State": "MI", "Score": 89.04, "OBJECTID": 147, "Loc_name": "PARCEL_2010", "Street": "3645 West Rd."}},{"geometry": {"type": "Point", "coordinates": [-83.1712013779412, 42.58920627155226]}, "type": "Feature", "id": 148, "properties": {"City": "Troy", "Match_type": "A", "Name": "DocNow Urgent Care", "Zip": 48098.0, "State": "MI", "Score": 89.04, "OBJECTID": 148, "Loc_name": "PARCEL_2010", "Street": "4600 Investment Dr."}},{"geometry": {"type": "Point", "coordinates": [-83.13492107814523, 42.54894333486709]}, "type": "Feature", "id": 149, "properties": {"City": "Troy", "Match_type": "A", "Name": "Concentra Urgent Care", "Zip": 48083.0, "State": "MI", "Score": 89.04, "OBJECTID": 149, "Loc_name": "PARCEL_2010", "Street": "627 E. Maple Rd."}},{"geometry": {"type": "Point", "coordinates": [-83.00024381200228, 42.62757596895585]}, "type": "Feature", "id": 150, "properties": {"City": "Utica", "Match_type": "M", "Name": "Healthy Urgent Care", "Zip": 48315.0, "State": "MI", "Score": 92.18, "OBJECTID": 150, "Loc_name": "MGFv14", "Street": "45030 Northpointe Blvd."}},{"geometry": {"type": "Point", "coordinates": [-83.00796927076522, 42.50820775588329]}, "type": "Feature", "id": 151, "properties": {"City": "Warren", "Match_type": "A", "Name": "Concentra Urgent Care", "Zip": 48093.0, "State": "MI", "Score": 100.0, "OBJECTID": 151, "Loc_name": "PARCEL_2010", "Street": "11569 E. 12 Mile Rd."}},{"geometry": {"type": "Point", "coordinates": [-83.08566086595619, 42.52234857252864]}, "type": "Feature", "id": 152, "properties": {"City": "Warren", "Match_type": "A", "Name": "DMC Care", "Zip": 48092.0, "State": "MI", "Score": 89.04, "OBJECTID": 152, "Loc_name": "PARCEL_2010", "Street": "31200 Dequindre Rd."}},{"geometry": {"type": "Point", "coordinates": [-83.02891466467997, 42.52693940832711]}, "type": "Feature", "id": 153, "properties": {"City": "Warren", "Match_type": "PP", "Name": "DMC Care - Warren Urgent Care", "Zip": 48093.0, "State": "MI", "Score": 100.0, "OBJECTID": 153, "Street": "31700 Van Dyke Ave."}},{"geometry": {"type": "Point", "coordinates": [-83.0628625008037, 42.53530929518786]}, "type": "Feature", "id": 154, "properties": {"City": "Warren", "Match_type": "M", "Name": "Universal Urgent Care", "Zip": 48092.0, "State": "MI", "Score": 79.91, "OBJECTID": 154, "Loc_name": "PARCEL_2010", "Street": "4600 E. 14 Mile Rd."}},{"geometry": {"type": "Point", "coordinates": [-83.01361291320535, 42.77151972355642]}, "type": "Feature", "id": 155, "properties": {"City": "Washington Twp", "Match_type": "A", "Name": "Village Health Family and Urgent Care", "Zip": 48095.0, "State": "MI", "Score": 87.77, "OBJECTID": 155, "Loc_name": "PARCEL_2010", "Street": "12150 30 Mile Road"}},{"geometry": {"type": "Point", "coordinates": [-83.39054191237932, 42.66108737488247]}, "type": "Feature", "id": 156, "properties": {"City": "Waterford", "Match_type": "A", "Name": "Waterford Urgent Care", "Zip": 48327.0, "State": "MI", "Score": 100.0, "OBJECTID": 156, "Loc_name": "PARCEL_2010", "Street": "5210 Highland Road"}},{"geometry": {"type": "Point", "coordinates": [-83.3342903211414, 42.64024241995179]}, "type": "Feature", "id": 157, "properties": {"City": "Waterford", "Match_type": "A", "Name": "Elizabeth Lake Urgent Care", "Zip": 48328.0, "State": "MI", "Score": 100.0, "OBJECTID": 157, "Loc_name": "PARCEL_2010", "Street": "2446 Elizabeth Lake Rd."}},{"geometry": {"type": "Point", "coordinates": [-83.38248969934011, 42.68838784782099]}, "type": "Feature", "id": 158, "properties": {"City": "Waterford", "Match_type": "A", "Name": "DocNow Urgent Care", "Zip": 48329.0, "State": "MI", "Score": 100.0, "OBJECTID": 158, "Loc_name": "PARCEL_2010", "Street": "4764 Dixie Highway"}},{"geometry": {"type": "Point", "coordinates": [-83.4379906300635, 42.557261028673565]}, "type": "Feature", "id": 159, "properties": {"City": "West Bloomfield", "Match_type": "A", "Name": "DMC Care - Lakes Urgent Care", "Zip": 48323.0, "State": "MI", "Score": 100.0, "OBJECTID": 159, "Loc_name": "PARCEL_2010", "Street": "2300 Haggerty Rd."}},{"geometry": {"type": "Point", "coordinates": [-83.4020342372902, 42.660046746859905]}, "type": "Feature", "id": 160, "properties": {"City": "Waterford", "Match_type": "A", "Name": "Michigan Urgent Care and Occupational Health", "Zip": 48327.0, "State": "MI", "Score": 92.79, "OBJECTID": 160, "Loc_name": "MGFv14", "Street": "5800 Highland Road"}},{"geometry": {"type": "Point", "coordinates": [-83.35912857082684, 42.53286839126332]}, "type": "Feature", "id": 161, "properties": {"City": "West Bloomfield", "Match_type": "A", "Name": "Healthy Urgent Care", "Zip": 48322.0, "State": "MI", "Score": 100.0, "OBJECTID": 161, "Loc_name": "PARCEL_2010", "Street": "7125 Orchard Lake Rd."}},{"geometry": {"type": "Point", "coordinates": [-83.37512612507055, 42.54247586037269]}, "type": "Feature", "id": 162, "properties": {"City": "West Bloomfield", "Match_type": "A", "Name": "West Bloomfield Urgent Care", "Zip": 48322.0, "State": "MI", "Score": 93.79, "OBJECTID": 162, "Loc_name": "MGFv14", "Street": "6079 W. Maple Rd."}},{"geometry": {"type": "Point", "coordinates": [-83.3884292412165, 42.305265964152966]}, "type": "Feature", "id": 163, "properties": {"City": "Westland", "Match_type": "A", "Name": "DMC Care - RiteMed Urgent Care", "Zip": 48186.0, "State": "MI", "Score": 93.26, "OBJECTID": 163, "Loc_name": "MGFv14", "Street": "769 S. Wayne Rd."}},{"geometry": {"type": "Point", "coordinates": [-83.50027402462649, 42.648364336744805]}, "type": "Feature", "id": 164, "properties": {"City": "White Lake", "Match_type": "A", "Name": "White Lake Urgent Care", "Zip": 48386.0, "State": "MI", "Score": 94.28, "OBJECTID": 164, "Loc_name": "MGFv14", "Street": "320 Town Center Blvd."}},{"geometry": {"type": "Point", "coordinates": [-83.22320890116981, 42.14086275441264]}, "type": "Feature", "id": 165, "properties": {"City": "Woodhaven", "Match_type": "A", "Name": "Concentra Urgent Care", "Zip": 48183.0, "State": "MI", "Score": 93.82, "OBJECTID": 165, "Loc_name": "MGFv14", "Street": "19200 West Road"}},{"geometry": {"type": "Point", "coordinates": [-83.61875121459684, 42.218026439468645]}, "type": "Feature", "id": 166, "properties": {"City": "Ypsilanti", "Match_type": "A", "Name": "South Huron Urgent Care", "Zip": 48197.0, "State": "MI", "Score": 85.03, "OBJECTID": 166, "Loc_name": "MGFv14", "Street": "1649 S. Huron St."}}]}